[
  {
    "geometry": {
      "location": {
        "lat": 51.080248,
        "lng": 17.037585
      },
      "viewport": {
        "northeast": {
          "lat": 51.08155798029149,
          "lng": 17.0389348302915
        },
        "southwest": {
          "lat": 51.0788600197085,
          "lng": 17.0362368697085
        }
      }
    },
    "icon": "https://maps.gstatic.com/mapfiles/place_api/icons/generic_recreational-71.png",
    "id": "d1a4d300865f344b32e7535c2e0374abd81ff9db",
    "name": "PRACOWNIA ARCHITEKTURY KRAJOBRAZU \"GREENOWNIA\" Monika Bilewicz",
    "opening_hours": {
      "open_now": false
    },
    "photos": [
      {
        "height": 1080,
        "html_attributions": [
          "\u003ca href=\"https://maps.google.com/maps/contrib/110768511664077708277/photos\"\u003eMonika Bilewicz\u003c/a\u003e"
        ],
        "photo_reference": "CmRaAAAAM4FV4_zuLWLL26LCg1fA7X5YRoFgUIdMwIvwUdbKLpV2zhIksGN3Nidn0TgmTTHe83X9GWQ6l9yTcKrUr6tABOEThN-_927ygU7ZwIw72Gl6mrDFYc9-0VAO8C2YGKyjEhDOyaSKzZKWJQNCrB4ITNYFGhTaKIgev2E5xScwvlq-1fyMvNupPw",
        "width": 1920
      }
    ],
    "place_id": "ChIJafYVR1jCD0cR82SLWx043P4",
    "plus_code": {
      "compound_code": "32JQ+32 Wrocław, Poland",
      "global_code": "9F3V32JQ+32"
    },
    "rating": 4.7,
    "reference": "ChIJafYVR1jCD0cR82SLWx043P4",
    "scope": "GOOGLE",
    "types": [
      "park",
      "point_of_interest",
      "establishment"
    ],
    "user_ratings_total": 3,
    "vicinity": "Jabłeczna 22, Wrocław"
  },
  {
    "geometry": {
      "location": {
        "lat": 51.07950460000001,
        "lng": 17.0461097
      },
      "viewport": {
        "northeast": {
          "lat": 51.08085258029151,
          "lng": 17.0476693802915
        },
        "southwest": {
          "lat": 51.07815461970851,
          "lng": 17.0449714197085
        }
      }
    },
    "icon": "https://maps.gstatic.com/mapfiles/place_api/icons/generic_recreational-71.png",
    "id": "629dafb01672ed4842329a82920582caad10ab3e",
    "name": "Wybieg dla czworonogów",
    "place_id": "ChIJwcFoO_fCD0cR-zp__tY3c4A",
    "plus_code": {
      "compound_code": "32HW+RC Wrocław, Poland",
      "global_code": "9F3V32HW+RC"
    },
    "reference": "ChIJwcFoO_fCD0cR-zp__tY3c4A",
    "scope": "GOOGLE",
    "types": [
      "park",
      "point_of_interest",
      "establishment"
    ],
    "vicinity": "Gaj,50-001"
  },
  {
    "geometry": {
      "location": {
        "lat": 51.0805531,
        "lng": 17.0442583
      },
      "viewport": {
        "northeast": {
          "lat": 51.08190208029151,
          "lng": 17.04560728029151
        },
        "southwest": {
          "lat": 51.07920411970851,
          "lng": 17.0429093197085
        }
      }
    },
    "icon": "https://maps.gstatic.com/mapfiles/place_api/icons/generic_recreational-71.png",
    "id": "f3a5d043f2c9666ee8499ccc42c5d78a817a0581",
    "name": "Park Słoneczny",
    "place_id": "ChIJK6ygfK7DD0cRoy8OXOhkqEM",
    "plus_code": {
      "compound_code": "32JV+6P Wrocław, Poland",
      "global_code": "9F3V32JV+6P"
    },
    "rating": 5,
    "reference": "ChIJK6ygfK7DD0cRoy8OXOhkqEM",
    "scope": "GOOGLE",
    "types": [
      "park",
      "point_of_interest",
      "establishment"
    ],
    "user_ratings_total": 1,
    "vicinity": "Gaj, Wrocław"
  },
  {
    "geometry": {
      "location": {
        "lat": 51.0786988,
        "lng": 17.0543666
      },
      "viewport": {
        "northeast": {
          "lat": 51.08004778029149,
          "lng": 17.0557155802915
        },
        "southwest": {
          "lat": 51.07734981970849,
          "lng": 17.05301761970849
        }
      }
    },
    "icon": "https://maps.gstatic.com/mapfiles/place_api/icons/generic_recreational-71.png",
    "id": "bfc480f22551402159891389a7eff7fa66940af6",
    "name": "Ogródki działkowe na Krzykach",
    "photos": [
      {
        "height": 4160,
        "html_attributions": [
          "\u003ca href=\"https://maps.google.com/maps/contrib/109087322414925453114/photos\"\u003eRafal Sz\u003c/a\u003e"
        ],
        "photo_reference": "CmRaAAAALrj6qtG3_wM0_orN0qKC5nzMDK-4u2XHbBstyV8S0w0YnbSyku2fzsvoWKbkf6QiYqen6JWkU_RkUszP8r4H3K7okiL2D-MJU7ZknpHxgCdfkgdoTFbse00pN3o2hrTjEhAIuHdLDDRdhS8XbgHYkv47GhQJRXTIWZGAYzWNHeW3yqfWgQSkIA",
        "width": 3120
      }
    ],
    "place_id": "ChIJmz6oLvDCD0cR9nnuWz9N2I8",
    "plus_code": {
      "compound_code": "33H3+FP Wrocław, Poland",
      "global_code": "9F3V33H3+FP"
    },
    "rating": 4,
    "reference": "ChIJmz6oLvDCD0cR9nnuWz9N2I8",
    "scope": "GOOGLE",
    "types": [
      "park",
      "point_of_interest",
      "establishment"
    ],
    "user_ratings_total": 1,
    "vicinity": "Unnamed Road"
  },
  {
    "geometry": {
      "location": {
        "lat": 51.0760196,
        "lng": 17.0497369
      },
      "viewport": {
        "northeast": {
          "lat": 51.0775186302915,
          "lng": 17.0511051802915
        },
        "southwest": {
          "lat": 51.0748206697085,
          "lng": 17.0484072197085
        }
      }
    },
    "icon": "https://maps.gstatic.com/mapfiles/place_api/icons/generic_recreational-71.png",
    "id": "47416635cf0ac120b7da4820b3d54b86baa6af3d",
    "name": "Park Wzgórze Gajowe",
    "opening_hours": {
      "open_now": true
    },
    "photos": [
      {
        "height": 2988,
        "html_attributions": [
          "\u003ca href=\"https://maps.google.com/maps/contrib/107203274144668796767/photos\"\u003eJerzy Jurkiewicz\u003c/a\u003e"
        ],
        "photo_reference": "CmRaAAAAnaDtNyPmygGTGUdHesPMPlIfqd8aOsrzDLkO2ot03F6AX5KhRUZNQ5XjmPEj4xurBsCwIob-3C33HoObxepNqRZeXC3XxTdXYRou9GIjB7Qow8a0BsBy4icsHlvGBjNREhCgwZiuaWkA7tfJH-YMf9cSGhQNNkj6Ofu8haAL7HkMTvvyKpoe8g",
        "width": 5312
      }
    ],
    "place_id": "ChIJ72z8i_rCD0cRc_4rLcCCWTU",
    "plus_code": {
      "compound_code": "32GX+CV Wrocław, Poland",
      "global_code": "9F3V32GX+CV"
    },
    "rating": 4.1,
    "reference": "ChIJ72z8i_rCD0cRc_4rLcCCWTU",
    "scope": "GOOGLE",
    "types": [
      "park",
      "point_of_interest",
      "establishment"
    ],
    "user_ratings_total": 126,
    "vicinity": "50-001, Wrocław"
  },
  {
    "geometry": {
      "location": {
        "lat": 51.0784448,
        "lng": 17.0401858
      },
      "viewport": {
        "northeast": {
          "lat": 51.07977958029149,
          "lng": 17.0415133802915
        },
        "southwest": {
          "lat": 51.0770816197085,
          "lng": 17.0388154197085
        }
      }
    },
    "icon": "https://maps.gstatic.com/mapfiles/place_api/icons/generic_business-71.png",
    "id": "b1877d0408f93fd508f45fc823e4025e1f5d1601",
    "name": "Bruk-Garden",
    "opening_hours": {
      "open_now": false
    },
    "photos": [
      {
        "height": 600,
        "html_attributions": [
          "\u003ca href=\"https://maps.google.com/maps/contrib/101271295309266278792/photos\"\u003eBruk-Garden\u003c/a\u003e"
        ],
        "photo_reference": "CmRaAAAAaH_IbXHAYQaH6VnkniIh8G57h6Fvnd4D6m_rJJ9HzpVPVBWOFf_QO5wXVrOoLux_tHQS6FmUqvPbGyEHHxllYHVCRFEW-C7llghDfahmGwwgUlUj7hOC9fzqVDHBZSHZEhAc3_W7VI1HosP3GsHtscL7GhSZNQgTvnXLKuT-NcFyEUS7rPRbQQ",
        "width": 800
      }
    ],
    "place_id": "ChIJpwjsxffCD0cRk9y9OLx0KhA",
    "plus_code": {
      "compound_code": "32HR+93 Wrocław, Poland",
      "global_code": "9F3V32HR+93"
    },
    "rating": 5,
    "reference": "ChIJpwjsxffCD0cRk9y9OLx0KhA",
    "scope": "GOOGLE",
    "types": [
      "park",
      "general_contractor",
      "point_of_interest",
      "establishment"
    ],
    "user_ratings_total": 2,
    "vicinity": "Orzechowa 51, Wrocław"
  },
  {
    "geometry": {
      "location": {
        "lat": 51.07631319999999,
        "lng": 17.0556582
      },
      "viewport": {
        "northeast": {
          "lat": 51.07781963029149,
          "lng": 17.0570125302915
        },
        "southwest": {
          "lat": 51.07512166970849,
          "lng": 17.0543145697085
        }
      }
    },
    "icon": "https://maps.gstatic.com/mapfiles/place_api/icons/generic_recreational-71.png",
    "id": "409a5eb46e92b645863061615e1c030861623a38",
    "name": "ROD \"Jelcz\"",
    "photos": [
      {
        "height": 4160,
        "html_attributions": [
          "\u003ca href=\"https://maps.google.com/maps/contrib/102476094568555798917/photos\"\u003eMarek Szydłowski\u003c/a\u003e"
        ],
        "photo_reference": "CmRaAAAAYh9gerT_6kDTwHouIUrfPUCmrTCDs41OvV3d8dYqLhPAyEfHyARq4XcSTZuyiqku0bpFf4jxXBJZfPxMxtyalT2sXbFL6KALvimqICiUgGTB7y8eIs134ZlxU_qNi8Z1EhBSoBgqnJlVq7pW3p8vjAQYGhSkDgmnTs14HFyxv88djSTE5nz3lA",
        "width": 3120
      }
    ],
    "place_id": "ChIJ7VtUiu_CD0cRkj_rB9dnLW0",
    "plus_code": {
      "compound_code": "33G4+G7 Wrocław, Poland",
      "global_code": "9F3V33G4+G7"
    },
    "rating": 4.3,
    "reference": "ChIJ7VtUiu_CD0cRkj_rB9dnLW0",
    "scope": "GOOGLE",
    "types": [
      "park",
      "point_of_interest",
      "establishment"
    ],
    "user_ratings_total": 19,
    "vicinity": "Morwowa, Wrocław"
  },
  {
    "geometry": {
      "location": {
        "lat": 51.085795,
        "lng": 17.0608491
      },
      "viewport": {
        "northeast": {
          "lat": 51.08714398029149,
          "lng": 17.0621980802915
        },
        "southwest": {
          "lat": 51.0844460197085,
          "lng": 17.0595001197085
        }
      }
    },
    "icon": "https://maps.gstatic.com/mapfiles/place_api/icons/generic_recreational-71.png",
    "id": "d65b2d2c16d1c89bb41ef8909f0cee41594c2919",
    "name": "ROD \"Pokój\"",
    "photos": [
      {
        "height": 2304,
        "html_attributions": [
          "\u003ca href=\"https://maps.google.com/maps/contrib/109421330020759825647/photos\"\u003eJohn Wayne\u003c/a\u003e"
        ],
        "photo_reference": "CmRaAAAADv9oNUmn0vRhB8Jsva1Kz_qwWHu34Vv9IDI0c_PtoR55lPPb9cOsI0K0nBEugngiekurj8r4GVplIsnmOpMuq-XGSr_ZiJ0Frc4ytCKzhra0y_l5VlSSa6YIZZoD3E75EhAufjj93A46HYJHFo4qRGrzGhS0UbK92dPy4Lw7xkvQJwhEPCGBVg",
        "width": 4096
      }
    ],
    "place_id": "ChIJgS1gSe3CD0cRpMSEH1gxVAA",
    "plus_code": {
      "compound_code": "33P6+88 Wrocław, Poland",
      "global_code": "9F3V33P6+88"
    },
    "rating": 4.1,
    "reference": "ChIJgS1gSe3CD0cRpMSEH1gxVAA",
    "scope": "GOOGLE",
    "types": [
      "park",
      "point_of_interest",
      "establishment"
    ],
    "user_ratings_total": 34,
    "vicinity": "aleja Armii Krajowej 54, Wrocław"
  },
  {
    "geometry": {
      "location": {
        "lat": 51.07503819999999,
        "lng": 17.0561131
      },
      "viewport": {
        "northeast": {
          "lat": 51.07633388029149,
          "lng": 17.0574712802915
        },
        "southwest": {
          "lat": 51.0736359197085,
          "lng": 17.0547733197085
        }
      }
    },
    "icon": "https://maps.gstatic.com/mapfiles/place_api/icons/generic_recreational-71.png",
    "id": "4a657e898c8c27a7b25b2373fd6b32776b1e0796",
    "name": "Ogródki działkowe",
    "photos": [
      {
        "height": 4032,
        "html_attributions": [
          "\u003ca href=\"https://maps.google.com/maps/contrib/110709640403373221909/photos\"\u003eMałgorzata Cichoń\u003c/a\u003e"
        ],
        "photo_reference": "CmRaAAAAcqXJLQroZb83Dsynj9qrXXluw5VwtQL-cH_4clPBHtYWf9JUspWp034DJ30JWTphFEPgYuyti1q4vZ3AigdhLel0LK-PyzZ5nHTk5tGVlMCvxklgWFMA4xl7e_ZGQrHfEhBqsvXfXXAuk5IrQcqnfwM0GhTdIfO4ISMZjS3rV3Zk8zuHBhkA7Q",
        "width": 2268
      }
    ],
    "place_id": "ChIJFWMPdOXCD0cRiXw4JR31OoU",
    "plus_code": {
      "compound_code": "33G4+2C Wrocław, Poland",
      "global_code": "9F3V33G4+2C"
    },
    "rating": 5,
    "reference": "ChIJFWMPdOXCD0cRiXw4JR31OoU",
    "scope": "GOOGLE",
    "types": [
      "park",
      "point_of_interest",
      "establishment"
    ],
    "user_ratings_total": 2,
    "vicinity": "Owocowa, Wrocław"
  },
  {
    "geometry": {
      "location": {
        "lat": 51.08738669999999,
        "lng": 17.03790009999999
      },
      "viewport": {
        "northeast": {
          "lat": 51.0887250802915,
          "lng": 17.0394950302915
        },
        "southwest": {
          "lat": 51.0860271197085,
          "lng": 17.03679706970849
        }
      }
    },
    "icon": "https://maps.gstatic.com/mapfiles/place_api/icons/generic_recreational-71.png",
    "id": "d110e8c577cc5510fb2cf3d8ab331d900f23a6fc",
    "name": "plac Ludwika Zamenhofa",
    "photos": [
      {
        "height": 1152,
        "html_attributions": [
          "\u003ca href=\"https://maps.google.com/maps/contrib/114323337306518630058/photos\"\u003eJarecki G.\u003c/a\u003e"
        ],
        "photo_reference": "CmRaAAAAtjdylPntPtKE8XAEWaei74ZtqH6m4RhI9gfdr3ohqTOr9eYps9xvshf5iR_dmUqARJ2UlNELE9Hpvp5DfOv42ZzCON83fJeILXQHOCR71WnweW0N9V66Vdquu4Wp0CyvEhABDzqhaInPGC6S0UXvv5J8GhSMBY4xq-BpON5COYLwS6dAqg_VOw",
        "width": 2048
      }
    ],
    "place_id": "ChIJn3_AZV7CD0cRZQXgu8gYNl0",
    "reference": "ChIJn3_AZV7CD0cRZQXgu8gYNl0",
    "scope": "GOOGLE",
    "types": [
      "park",
      "premise",
      "point_of_interest",
      "establishment"
    ],
    "vicinity": "Krzyki"
  }
]
